City,Lat,Lng,Max Temp,Humidity,Cloudiness,Wind Speed,Country,Date
Baker City,44.7749,-117.8344,38.59,87,33,12.82,US,1666544296
Tuatapere,-46.1333,167.6833,48.07,96,100,12.95,NZ,1666544296
Saint-Pierre,-21.3393,55.4781,73.08,78,20,2.3,RE,1666544297
Arraial do Cabo,-22.9661,-42.0278,76.96,73,40,12.66,BR,1666544297
Ushuaia,-54.8,-68.3,55.06,47,40,4.61,AR,1666544206
Cape Town,-33.9258,18.4232,72.01,74,0,24.16,ZA,1666544298
Pemberton,50.3164,-122.8027,31.69,50,17,1.19,CA,1666544299
Adrar,20.5022,-10.0711,95.4,10,0,11.01,MR,1666544299
Nuci,44.7167,26.3,65.95,53,2,5.14,RO,1666544300
Akdepe,42.0551,59.3788,53.69,49,74,8.88,TM,1666544300
Mataura,-46.1927,168.8643,50.65,96,100,7.45,NZ,1666544301
Beringovskiy,63.05,179.3167,22.59,80,88,10.8,RU,1666544301
Winnemucca,40.973,-117.7357,38.84,51,21,13.31,US,1666544012
Shurugwi,-19.6702,30.0059,73.65,42,56,10.96,ZW,1666544302
Butaritari,3.0707,172.7902,80.55,75,92,6.8,KI,1666544302
Seydi,39.4816,62.9137,59.05,34,100,7.99,TM,1666544303
Sinnamary,5.3833,-52.95,87.58,65,88,13.51,GF,1666544303
Rikitea,-23.1203,-134.9692,72.14,81,90,13.47,PF,1666544029
Mahébourg,-20.4081,57.7,73.69,78,75,8.05,MU,1666544304
Klaksvík,62.2266,-6.589,47.32,85,100,19.64,FO,1666544305
Lebu,-37.6167,-73.65,54.77,60,2,9.19,CL,1666544306
Lazi,48.0667,24.2333,47.64,97,91,1.97,UA,1666544306
Maués,-3.3836,-57.7186,94.64,39,87,2.3,BR,1666544307
Guerrero Negro,27.9769,-114.0611,72.52,54,97,10.85,MX,1666544307
Biloela,-24.4167,150.5,70.38,62,93,3.49,AU,1666544308
Iralaya,15.0,-83.2333,82.42,76,9,5.75,HN,1666544309
Sitka,57.0531,-135.33,40.71,87,100,15.26,US,1666544309
Kapaa,22.0752,-159.319,74.19,91,10,9.86,US,1666544309
Port Elizabeth,-33.918,25.5701,71.1,83,20,11.5,ZA,1666544018
Thayetmyo,19.3167,95.1833,75.34,93,99,4.27,MM,1666544310
Tuktoyaktuk,69.4541,-133.0374,10.4,92,75,9.22,CA,1666544311
Saskylakh,71.9167,114.0833,11.34,98,85,6.96,RU,1666544311
Busselton,-33.65,115.3333,55.26,90,97,8.37,AU,1666544312
Upernavik,72.7868,-56.1549,29.17,79,100,4.52,GL,1666544312
Khatanga,71.9667,102.5,11.97,91,84,11.74,RU,1666544313
Progreso,21.2833,-89.6667,82.11,46,0,7.63,MX,1666544313
Castro,-24.7911,-50.0119,75.49,51,5,7.25,BR,1666544313
Avarua,-21.2078,-159.775,77.05,94,75,8.05,CK,1666544314
Feira de Santana,-12.2667,-38.9667,89.02,43,91,15.57,BR,1666544097
Albany,42.6001,-73.9662,61.27,61,100,3.0,US,1666544190
Yarim,14.298,44.3779,57.43,44,1,1.12,YE,1666544315
Bluff,-46.6,168.3333,48.4,89,100,14.88,NZ,1666544315
Gerāsh,27.6652,54.1371,73.54,24,0,3.91,IR,1666544316
Songkhla,6.8333,100.6667,77.05,93,89,0.38,TH,1666544316
Arlit,18.7369,7.3853,88.18,11,51,9.01,NE,1666544111
Tiksi,71.6872,128.8694,21.69,81,99,13.47,RU,1666544317
Menomonie,44.8755,-91.9193,71.28,55,20,17.69,US,1666544317
Bengkulu,-3.8004,102.2655,76.71,90,100,3.62,ID,1666544318
Bredasdorp,-34.5322,20.0403,64.11,83,67,11.72,ZA,1666544318
Tura,25.5198,90.2201,69.78,87,98,4.0,IN,1666544319
George Town,5.4112,100.3354,84.13,74,20,5.99,MY,1666544264
Airai,-8.9266,125.4092,62.22,86,88,1.34,TL,1666544319
Sioux Lookout,50.1001,-91.917,51.87,76,40,6.91,CA,1666544320
Changji,44.0167,87.3167,54.39,50,0,4.47,CN,1666544321
Whitehorse,60.7161,-135.0538,32.77,94,100,3.44,CA,1666544321
Jamestown,42.097,-79.2353,69.06,31,0,4.61,US,1666544022
Namtsy,62.7161,129.6658,15.17,96,100,4.83,RU,1666544322
Carnarvon,-24.8667,113.6333,69.4,64,26,18.41,AU,1666544322
Arequipa,-16.3989,-71.535,66.27,13,0,9.22,PE,1666544036
Hobart,-42.8794,147.3294,51.66,73,100,9.22,AU,1666544323
Darnétal,49.4453,1.1514,67.44,79,71,10.36,FR,1666544323
Constitución,-35.3333,-72.4167,57.7,59,65,6.89,CL,1666544324
Faya,18.3851,42.4509,68.11,43,1,3.13,SA,1666544324
Chokurdakh,70.6333,147.9167,3.76,96,99,9.22,RU,1666544325
Arona,28.0996,-16.681,71.13,81,40,14.97,ES,1666544325
Marawi,7.9986,124.2928,69.75,91,100,1.68,PH,1666544326
Cherskiy,68.75,161.3,11.08,95,100,10.58,RU,1666544326
Somova,45.1833,28.6667,59.29,55,0,3.44,RO,1666544326
Torbay,47.6666,-52.7314,62.89,69,20,17.27,CA,1666544327
Cockburn Town,21.4612,-71.1419,82.22,68,98,10.83,TC,1666544036
Chapais,49.7834,-74.8492,60.58,60,22,7.52,CA,1666544327
Si Chiang Mai,17.9564,102.5867,78.1,76,9,0.29,TH,1666544328
Goderich,43.7501,-81.7165,69.91,52,96,8.05,CA,1666544316
Bāfq,31.6128,55.4107,74.44,16,0,4.43,IR,1666544329
Thompson,55.7435,-97.8558,32.16,80,75,12.66,CA,1666544329
Mount Gambier,-37.8333,140.7667,53.51,100,100,14.97,AU,1666544330
Zyryanka,65.75,150.85,-4.5,96,58,9.31,RU,1666544330
Kieta,-6.2167,155.6333,77.79,84,52,0.96,PG,1666544331
Hambantota,6.1241,81.1185,79.52,77,98,15.52,LK,1666544331
Puerto Ayora,-0.7393,-90.3518,73.36,86,86,4.0,EC,1666544331
Mirny,62.5353,113.9611,32.23,100,100,11.01,RU,1666544332
Lázaro Cárdenas,17.9583,-102.2,83.7,69,68,0.92,MX,1666544332
Hermanus,-34.4187,19.2345,68.81,80,12,17.2,ZA,1666544333
Faanui,-16.4833,-151.75,78.71,74,93,11.41,PF,1666544333
Bilma,18.6853,12.9164,87.06,19,7,6.02,NE,1666544333
Kaitangata,-46.2817,169.8464,52.66,86,100,14.34,NZ,1666544334
Roald,62.5833,6.1333,47.75,87,0,14.97,NO,1666544334
Sistranda,63.7256,8.834,35.56,70,53,17.43,NO,1666544335
Yellowknife,62.456,-114.3525,25.32,80,75,8.05,CA,1666544223
Mehamn,71.0357,27.8492,39.11,87,75,11.5,NO,1666544335
Ponta do Sol,32.6667,-17.1,74.71,62,99,4.9,PT,1666544336
Eureka,40.8021,-124.1637,53.2,79,0,1.99,US,1666544032
Lorengau,-2.0226,147.2712,80.87,67,73,3.87,PG,1666544336
Atuona,-9.8,-139.0333,75.33,80,17,15.55,PF,1666544337
Villena,38.6373,-0.8657,72.03,75,100,5.55,ES,1666544337
Krasnogorskoye,52.2953,86.1979,35.04,74,25,17.0,RU,1666544338
Olonets,60.9847,32.9698,41.52,83,100,8.34,RU,1666544338
San Pedro de Macorís,18.4616,-69.2972,87.93,68,42,5.75,DO,1666544339
Saint-Philippe,-21.3585,55.7679,72.99,83,44,10.02,RE,1666544339
Namatanai,-3.6667,152.4333,78.1,78,82,0.4,PG,1666544339
São João da Barra,-21.6403,-41.0511,80.69,72,94,11.61,BR,1666544340
Saint Paul Harbor,57.79,-152.4072,38.41,77,100,12.3,US,1666544340
Tual,-5.6667,132.75,83.37,72,95,4.76,ID,1666544341
Salina Cruz,16.1667,-95.2,86.23,54,31,4.45,MX,1666544341
Quelimane,-17.8786,36.8883,80.55,74,20,14.0,MZ,1666544342
Juneau,58.3019,-134.4197,40.21,100,100,7.81,US,1666544343
Mukhen,48.1,136.1,31.55,74,4,2.3,RU,1666544343
Salalah,17.0151,54.0924,79.07,68,2,2.26,OM,1666544098
Digby,44.6169,-65.7655,59.95,59,100,0.36,CA,1666544344
Savannah Bight,16.45,-85.85,80.64,74,0,3.33,HN,1666544345
Aykhal,66.0,111.5,27.45,97,100,7.05,RU,1666544345
Martapura,-3.4167,114.85,78.89,100,100,1.14,ID,1666544346
Barrow,71.2906,-156.7887,19.89,93,40,17.85,US,1666544346
Haines Junction,60.7522,-137.5108,31.95,69,100,8.05,CA,1666544347
Bethel,41.3712,-73.414,60.89,63,100,1.99,US,1666544347
New Norfolk,-42.7826,147.0587,51.3,78,98,3.0,AU,1666544348
Vrangel',42.7297,133.0839,40.44,67,75,10.13,RU,1666544349
Mahajanga,-15.7167,46.3167,78.82,78,20,10.36,MG,1666544349
Karasjok,69.4719,25.5112,34.29,84,57,30.87,NO,1666544349
Skjervøy,70.0311,20.9714,39.2,66,100,33.53,NO,1666544350
Provideniya,64.3833,-173.3,29.84,89,100,4.16,RU,1666544350
Guipavas,48.4352,-4.3972,59.16,88,100,27.63,FR,1666544351
Paita,-5.0892,-81.1144,69.3,69,100,14.23,PE,1666544351
Bilibino,68.0546,166.4372,-3.12,100,100,1.5,RU,1666544352
Ribeira Grande,38.5167,-28.7,68.4,64,40,13.8,PT,1666544352
Mar del Plata,-38.0023,-57.5575,61.95,78,20,20.0,AR,1666544353
Qaanaaq,77.484,-69.3632,22.6,96,100,1.14,GL,1666544353
Asmara,15.3333,38.9333,58.77,80,17,6.62,ER,1666544354
Baracoa,20.3467,-74.4958,83.61,73,100,7.05,CU,1666544354
Laredo,27.5064,-99.5075,80.89,61,0,17.27,US,1666544112
Henties Bay,-22.116,14.2845,59.79,88,83,11.23,NA,1666544355
Road Town,18.4167,-64.6167,86.04,74,20,5.75,VG,1666544355
Yumen,40.2833,97.2,48.56,26,0,6.82,CN,1666544356
Orchard Homes,46.8633,-114.0484,37.81,94,100,3.0,US,1666544356
Souillac,-20.5167,57.5167,73.78,78,75,8.05,MU,1666544357
Vaini,-21.2,-175.2,71.76,68,40,11.5,TO,1666544357
Doha,25.2867,51.5333,87.69,62,0,6.91,QA,1666544288
Valparaíso,-33.0393,-71.6273,59.47,100,100,3.44,CL,1666544075
Kavaratti,10.5669,72.642,81.84,74,98,1.1,IN,1666544358
Tessalit,20.1986,1.0114,86.22,12,98,12.19,ML,1666544358
Mareeba,-17.0,145.4333,76.48,93,19,2.17,AU,1666544359
Honiara,-9.4333,159.95,76.39,90,99,3.91,SB,1666544359
Portland,45.5234,-122.6762,50.63,90,75,5.75,US,1666543894
Yar-Sale,66.8333,70.8333,29.64,74,98,8.9,RU,1666544360
Phalaborwa,-23.943,31.1411,77.41,56,61,6.17,ZA,1666544361
Trincomalee,8.5711,81.2335,78.55,84,100,10.29,LK,1666544361
Saint-François,46.4154,3.9054,74.64,43,0,9.22,FR,1666544362
Leningradskiy,69.3833,178.4167,21.11,95,100,8.3,RU,1666544362
Tarko-Sale,64.9225,77.785,29.23,71,100,21.14,RU,1666544362
Port Hardy,50.6996,-127.4199,39.38,100,75,4.61,CA,1666544363
Talnakh,69.4865,88.3972,24.21,96,100,8.63,RU,1666544363
La Ronge,55.1001,-105.2842,37.62,87,100,6.91,CA,1666544364
Labuhan,-6.8844,112.2051,79.47,84,100,8.9,ID,1666544365
Nome,64.5011,-165.4064,37.47,93,100,9.22,US,1666544365
Geraldton,-28.7667,114.6,63.01,94,75,11.5,AU,1666544366
Baykit,61.67,96.37,28.35,82,100,15.64,RU,1666544366
Maceió,-9.6658,-35.7353,87.24,58,40,12.66,BR,1666544366
Hong Kong,22.2855,114.1577,78.85,75,96,8.99,HK,1666544295
Mahdasht,35.7299,50.8111,68.22,67,40,6.91,IR,1666544367
Lavrentiya,65.5833,-171.0,31.32,85,94,0.54,RU,1666544367
Rivadavia,-33.1905,-68.4608,77.23,25,0,9.73,AR,1666544368
Bahía Honda,22.9036,-83.1592,82.92,61,4,10.0,CU,1666544368
Karratha,-20.7377,116.8463,73.06,57,0,17.56,AU,1666544369
Toledo,39.8333,-4.0,66.31,72,67,13.58,ES,1666544369
Riyadh,24.6877,46.7219,84.34,14,0,5.66,SA,1666544288
Clyde River,70.4692,-68.5914,25.03,93,100,13.8,CA,1666544370
Ancud,-41.8697,-73.8203,49.78,78,100,18.28,CL,1666544370
Passo Fundo,-28.2628,-52.4067,73.65,56,40,11.5,BR,1666544154
Punta Arenas,-53.15,-70.9167,55.51,50,0,28.77,CL,1666544371
Kāvali,14.9167,79.9833,75.22,72,22,9.04,IN,1666544371
Atar,20.5169,-13.0499,98.91,8,1,8.34,MR,1666544372
Trat,12.5,102.5,76.14,91,40,1.28,TH,1666544372
Borogontsy,62.6683,131.1683,12.02,97,99,5.41,RU,1666544372
Leskolovo,60.2634,30.4546,41.61,79,100,6.33,RU,1666544373
Iwanai,42.9744,140.5089,43.52,90,70,9.53,JP,1666544373
Nizhniy Kuranakh,58.8353,125.4869,13.21,91,32,5.3,RU,1666544374
Lüderitz,-26.6481,15.1594,64.53,74,75,21.0,NA,1666544374
Nanortalik,60.1432,-45.2371,37.4,99,100,8.48,GL,1666544375
Pachino,36.7186,15.0907,71.98,66,12,13.58,IT,1666544375
Bonavista,48.6499,-53.1147,57.13,68,0,13.2,CA,1666544376
Funadhoo,6.15,73.2667,80.64,81,100,13.65,MV,1666544376
Kaeo,-35.1,173.7833,45.32,93,1,3.83,NZ,1666544377
Soubre,5.7856,-6.6083,77.58,94,89,3.8,CI,1666544377
Andros Town,24.7,-77.7667,84.16,60,5,12.3,BS,1666544377
Quryq,43.2,51.65,54.41,43,91,8.28,KZ,1666544378
Ipuã,-20.4381,-48.0122,91.47,27,7,6.04,BR,1666544379
Silleda,42.696,-8.2465,57.54,81,100,8.48,ES,1666544379
Acapulco de Juárez,16.8634,-99.8901,83.08,72,19,4.61,MX,1666544379
Hay River,60.8156,-115.7999,22.98,86,75,2.3,CA,1666544380
Pevek,69.7008,170.3133,16.05,95,100,6.17,RU,1666544380
Linxia Chengguanzhen,35.6003,103.2064,54.03,65,100,1.59,CN,1666544381
Altay,47.8667,88.1167,44.29,80,100,6.53,CN,1666544381
Vilhena,-12.7406,-60.1458,79.02,73,20,9.22,BR,1666544382
Olafsvik,64.8945,-23.7142,42.69,82,90,15.23,IS,1666544382
Albanel,48.8832,-72.4487,68.14,55,1,4.61,CA,1666544383
Oistins,13.0667,-59.5333,87.89,74,75,12.66,BB,1666544099
Casas Grandes,30.3667,-107.95,72.45,41,70,24.63,MX,1666544383
Caucayá,-0.1934,-74.7819,81.95,88,75,3.71,CO,1666544384
Santo Ângelo,-28.2992,-54.2631,79.12,65,40,13.8,BR,1666544384
Iwaki,37.05,140.8833,54.77,93,98,1.01,JP,1666544385
Nyurba,63.2842,118.3319,30.61,95,100,12.95,RU,1666544385
Goma,-1.6792,29.2228,66.76,72,73,4.23,CD,1666544386
Rocha,-34.4833,-54.3333,63.43,72,96,12.08,UY,1666544387
Tevaitoa,-16.7833,-151.5,78.53,76,87,11.95,PF,1666544387
Jacksonville,30.3322,-81.6556,80.85,66,0,6.91,US,1666544114
Asău,46.4333,26.4,54.52,84,34,5.37,RO,1666544388
Hilo,19.7297,-155.09,73.11,92,43,5.01,US,1666544388
Cabo San Lucas,22.8909,-109.9124,87.62,53,54,8.99,MX,1666543728
Luena,-11.7833,19.9167,74.98,49,64,3.58,AO,1666544389
Dunedin,-45.8742,170.5036,54.88,64,100,8.95,NZ,1666544389
Yangi Marg`ilon,40.4272,71.7189,52.52,76,100,6.91,UZ,1666544389
Codrington,-38.2667,141.9667,53.78,92,100,16.22,AU,1666544390
Dhidhdhoo,6.8833,73.1,81.27,79,98,10.09,MV,1666544391
Port Blair,11.6667,92.75,78.84,89,75,3.44,IN,1666544391
Saint-Augustin,51.226,-58.6502,57.81,46,44,16.8,CA,1666544391
Tyumen,57.1522,65.5272,28.49,63,0,11.18,RU,1666544392
Tilichiki,60.4667,166.1,9.16,89,18,6.06,RU,1666544392
Hithadhoo,-0.6,73.0833,82.2,70,31,4.76,MV,1666544393
Port Alfred,-33.5906,26.891,66.18,87,100,3.0,ZA,1666544394
Gladstone,-23.85,151.25,69.78,70,84,1.81,AU,1666544394
Arrondissement de Lisieux,49.1667,0.1667,65.16,74,60,20.54,FR,1666544394
Samarai,-10.6167,150.6667,79.79,79,33,6.55,PG,1666544395
Carora,10.1755,-70.0827,89.11,48,79,1.9,VE,1666544396
Kununurra,-15.7667,128.7333,92.48,34,40,6.58,AU,1666544397
Gillette,44.2911,-105.5022,35.02,93,100,5.01,US,1666544397
Ilulissat,69.2167,-51.1,33.94,92,100,2.39,GL,1666544398
Iquitos,-3.7481,-73.2472,78.84,94,100,8.05,PE,1666544399
Cidreira,-30.1811,-50.2056,70.36,67,45,5.59,BR,1666544399
Zhuanghe,39.7008,122.9911,44.98,50,0,5.17,CN,1666544399
Hanna,51.6334,-111.9018,31.86,94,100,5.01,CA,1666544120
Hasaki,35.7333,140.8333,60.22,77,74,26.55,JP,1666544400
Örnsköldsvik,63.2909,18.7153,32.95,80,13,6.91,SE,1666544401
General Roca,-39.0333,-67.5833,77.94,20,3,7.99,AR,1666544401
Barcelos,41.5388,-8.6151,64.85,90,97,10.33,PT,1666544402
Takoradze,4.8845,-1.7554,80.82,77,35,8.77,GH,1666544403
Krasnosel'kup,65.7,82.4667,27.39,84,100,17.05,RU,1666544403
Palauig,15.435,119.9045,80.28,82,77,2.55,PH,1666544405
Bagan,54.1001,77.6646,33.03,84,100,15.12,RU,1666544407
Kumul,42.8,93.45,55.51,27,0,5.1,CN,1666544408
Keflavik,64.0049,-22.5624,41.43,93,75,20.71,IS,1666544409
Curumaní,9.1999,-73.5427,82.71,87,92,3.02,CO,1666544230
Ostrovnoy,68.0531,39.5131,35.89,90,99,14.29,RU,1666544410
Malbork,54.0359,19.0266,55.89,87,82,4.16,PL,1666544411
Pacocha,-17.5833,-71.3333,67.37,66,63,7.58,PE,1666544411
Malartic,48.1335,-78.1328,64.02,70,1,9.26,CA,1666544412
Sokółka,53.4072,23.5023,54.32,97,99,6.42,PL,1666544412
Deputatsky,69.3,139.9,-1.34,96,97,4.79,RU,1666544413
Caravelas,-17.7125,-39.2481,83.3,61,66,11.23,BR,1666544414
Urusha,54.05,122.9,24.64,79,31,1.28,RU,1666544415
Poshekhon'ye,58.4993,39.1353,42.46,89,100,11.61,RU,1666544415
Sabha,27.0377,14.4283,70.9,22,0,9.69,LY,1666544416
Hue,16.4667,107.6,77.11,88,40,3.44,VN,1666544417
Ginir,7.1333,40.7,57.7,87,33,3.6,ET,1666544417
Am Timan,11.0297,20.2827,82.35,32,43,4.63,TD,1666544418
Norman Wells,65.282,-126.8329,18.82,92,100,0.78,CA,1666544419
Sur,22.5667,59.5289,80.26,47,0,3.47,OM,1666544420
Narsaq,60.9167,-46.05,37.62,98,100,7.09,GL,1666544420
Mana,5.6592,-53.7767,85.6,71,100,12.06,GF,1666544421
Te Anau,-45.4167,167.7167,51.3,96,100,2.73,NZ,1666544422
Richards Bay,-28.783,32.0377,70.39,91,43,1.68,ZA,1666544423
Äänekoski,62.6946,25.818,33.87,100,39,7.74,FI,1666544424
Lompoc,34.6391,-120.4579,68.77,65,0,5.99,US,1666544425
Sisimiut,66.9395,-53.6735,35.46,97,100,6.26,GL,1666544425
Berezovyy,51.6667,135.7,27.97,65,31,2.3,RU,1666544426
Bois-Guillaume,49.4602,1.1222,65.98,79,70,10.36,FR,1666544427
Srednekolymsk,67.45,153.6833,-1.62,94,97,7.7,RU,1666544427
Ukiah,39.1502,-123.2078,56.88,63,0,4.0,US,1666544281
Ixtapa,20.7,-105.2,84.22,80,100,1.99,MX,1666544418
North Myrtle Beach,33.816,-78.68,73.11,46,80,5.99,US,1666544230
Amahai,-3.3333,128.9167,79.03,84,100,1.39,ID,1666544429
Trairi,-3.2778,-39.2689,86.38,57,53,14.03,BR,1666544170
Lata,40.1629,-8.3327,65.07,81,66,8.88,PT,1666544433
Baijiantan,45.6333,85.1833,54.28,44,100,31.32,CN,1666544434
Kyabé,9.4515,18.9449,80.4,59,83,3.44,TD,1666544434
Kiunga,-6.1219,141.2906,72.45,99,79,1.72,PG,1666544435
Al Bardīyah,31.7561,25.0865,69.3,61,0,9.57,LY,1666544436
Ballina,-28.8667,153.5667,67.01,99,100,10.54,AU,1666544437
Vieux-Habitants,16.0589,-61.7659,89.17,66,7,5.37,GP,1666544438
Auriflama,-20.6856,-50.5547,91.06,31,19,5.68,BR,1666544438
Tasiilaq,65.6145,-37.6368,32.16,95,100,4.97,GL,1666544439
Yerbogachën,61.2767,108.0108,43.5,84,94,15.26,RU,1666544439
Longyearbyen,78.2186,15.6401,21.04,68,75,6.91,SJ,1666544440
Bandarbeyla,9.4942,50.8122,79.03,80,6,4.7,SO,1666544440
Alihe,50.5667,123.7167,25.5,65,0,2.64,CN,1666544441
San Patricio,28.017,-97.5169,85.89,54,100,20.18,US,1666544441
Leh,34.1667,77.5833,32.49,35,0,0.58,IN,1666544442
Ngunguru,-35.6167,174.5,50.81,85,9,6.67,NZ,1666544442
Matadi,-5.8167,13.45,88.57,56,100,6.11,CD,1666544443
Mayo,38.8876,-76.5119,66.45,75,100,5.01,US,1666544443
Vieques,18.425,-65.8329,91.67,69,11,9.4,PR,1666544444
Porbandar,21.6422,69.6093,82.49,54,0,4.52,IN,1666544444
Redmond,47.674,-122.1215,48.34,93,95,1.99,US,1666544356
Dikson,73.5069,80.5464,25.77,88,100,9.89,RU,1666544445
Tazovsky,67.4667,78.7,28.08,86,99,17.13,RU,1666544446
Šalčininkai,54.3,25.3833,50.85,87,99,7.11,LT,1666544446
Isoka,-10.1606,32.6335,79.25,27,68,4.43,ZM,1666544447
Vrises,35.492,23.8899,67.19,70,33,3.51,GR,1666544447
Almaty,43.25,76.95,46.85,85,100,3.22,KZ,1666544448
Cairns,-16.9167,145.7667,80.55,88,40,4.61,AU,1666544448
Saldanha,-33.0117,17.9442,63.3,87,88,24.9,ZA,1666544449
Visby,57.6409,18.296,49.05,87,100,2.3,SE,1666544173
Itarema,-2.9248,-39.9167,86.04,60,74,17.11,BR,1666544450
Mossamedes,-15.1961,12.1522,69.28,82,40,9.33,AO,1666544450
Severo-Kuril'sk,50.6789,156.125,37.08,98,100,7.85,RU,1666544451
Harper,4.375,-7.7169,79.11,83,92,8.01,LR,1666544452
Edéia,-17.3383,-49.9314,91.92,35,98,2.95,BR,1666544452
Yichun,47.7,128.9,24.98,72,0,2.24,CN,1666544453
Turukhansk,65.8167,87.9833,26.31,95,96,15.17,RU,1666544453
Pochutla,15.7432,-96.4661,85.82,70,22,5.12,MX,1666544454
East London,-33.0153,27.9116,69.75,77,80,13.44,ZA,1666544454
Berdigestyakh,62.0989,126.6992,26.53,94,99,7.23,RU,1666544455
Quatre Cocos,-20.2078,57.7625,73.09,81,44,9.89,MU,1666544456
Yulara,-25.2406,130.9889,68.31,46,24,15.57,AU,1666544456
Xining,36.6167,101.7667,48.43,63,100,0.6,CN,1666544457
Tabriz,38.08,46.2919,51.26,82,0,4.61,IR,1666544411
Tigil',57.8,158.6667,19.72,85,85,4.54,RU,1666544457
Petatlán,17.5167,-101.2667,85.44,64,83,3.65,MX,1666544205
Kavieng,-2.5744,150.7967,80.1,70,21,2.15,PG,1666544458
Chicama,-7.8447,-79.1469,72.84,56,89,10.42,PE,1666544458
Ilhabela,-23.7781,-45.3581,72.27,76,34,5.53,BR,1666544459
Lumeje,-11.55,20.7833,79.97,41,57,4.43,AO,1666544460
Vostok,46.4856,135.8833,25.2,96,20,1.25,RU,1666544460
Lagoa,39.05,-27.9833,64.67,68,92,25.57,PT,1666544461
Peniche,39.3558,-9.3811,66.29,87,83,15.21,PT,1666544462
Khāsh,28.2211,61.2158,66.47,25,0,5.61,IR,1666544462
Bubaque,11.2833,-15.8333,83.41,67,29,2.57,GW,1666544463
San Ignacio,17.1561,-89.0714,84.22,56,3,4.65,BZ,1666544463
Panabá,21.2833,-88.2667,85.64,41,0,6.64,MX,1666544464
Muros,42.7762,-9.0603,62.83,84,57,17.34,ES,1666544464
Aklavik,68.2191,-135.0107,10.76,97,93,2.8,CA,1666544465
Kayes,14.0,-11.0,90.45,31,95,3.89,ML,1666544465
Kitui,-1.367,38.0106,70.43,58,29,6.87,KE,1666544466
Sucilá,21.15,-88.3167,86.2,38,0,6.33,MX,1666544466
Dingle,10.9995,122.6711,76.26,91,75,5.59,PH,1666544467
Warman,52.3168,-106.5679,34.9,64,100,14.05,CA,1666544468
Jiwani,25.05,61.7417,80.67,72,0,11.63,PK,1666544468
San Cristobal,7.7669,-72.225,77.18,64,100,3.33,VE,1666544306
Cracow,43.7424,-82.8199,71.49,57,0,11.5,US,1666544469
Talara,-4.5772,-81.2719,67.82,73,98,19.51,PE,1666544469
Hashtrūd,37.4779,47.0508,55.11,57,0,1.9,IR,1666544470
Nikolskoye,59.7035,30.7861,44.49,86,100,7.11,RU,1666544470
Bukoba,-1.3317,31.8122,70.3,74,7,4.65,TZ,1666544471
Daru,-9.0763,143.2092,78.03,82,47,2.66,PG,1666544471
Tezu,27.9167,96.1667,73.08,64,99,2.55,IN,1666544472
Rosetta,31.4044,30.4164,72.66,65,1,15.75,EG,1666544472
Flinders,-34.5833,150.8552,64.18,93,100,4.0,AU,1666544473
Kurayoshi,35.4333,133.8167,54.0,86,99,9.93,JP,1666544473
Birjand,32.8663,59.2211,64.9,26,0,3.71,IR,1666544474
Kolomak,49.8399,35.3044,47.97,96,100,6.53,UA,1666544475
Esperance,-33.8667,121.9,56.34,68,76,19.35,AU,1666544475
Mount Isa,-20.7333,139.5,83.01,40,38,13.15,AU,1666544462
Miracema do Tocantins,-9.5618,-48.3967,96.71,35,67,3.56,BR,1666544476
Laško,46.1546,15.2356,65.12,98,79,4.45,SI,1666544477
Bambous Virieux,-20.3428,57.7575,73.22,82,46,10.16,MU,1666544477
Katsuura,35.1333,140.3,66.18,77,78,18.19,JP,1666544478
Kloulklubed,7.0419,134.2556,83.68,73,100,11.79,PW,1666544478
Launceston,-41.45,147.1667,49.6,80,96,21.85,AU,1666544479
Shingū,33.7333,135.9833,58.66,75,67,5.77,JP,1666544407
Ahipara,-35.1667,173.1667,50.2,87,1,2.89,NZ,1666544479
Manggar,-2.8833,108.2667,78.64,86,100,5.19,ID,1666544480
Havre-St-Pierre,50.2334,-63.5986,50.7,77,10,10.98,CA,1666544480
Grindavik,63.8424,-22.4338,41.47,93,75,20.71,IS,1666544481
Burgos,42.3394,-3.7079,59.41,55,20,25.32,ES,1666544481
Anaconda,46.1285,-112.9423,31.87,80,100,6.44,US,1666544482
Chernyshkovskiy,48.4219,42.2308,48.4,54,100,7.87,RU,1666544482
Yashkul',46.1711,45.3435,49.37,46,47,8.12,RU,1666544483
Glenluce,54.8798,-4.8084,54.88,94,100,5.61,GB,1666544483
Biabou,13.2,-61.1333,83.3,76,22,8.41,VC,1666544484
Poum,-20.2333,164.0167,74.23,91,100,28.92,NC,1666544484
Diamantino,-14.4086,-56.4461,81.52,68,100,1.45,BR,1666544485
Mandalgovi,45.7625,106.2708,40.28,37,0,8.75,MN,1666544485
Hobyo,5.3505,48.5268,79.41,80,94,11.9,SO,1666544486
Gamba,-2.65,10.0,77.61,88,96,8.61,GA,1666544486
Sayyan,15.1718,44.3244,59.43,22,0,5.35,YE,1666544487
Montero,-17.3333,-63.25,86.31,43,95,5.68,BO,1666544487
Kruisfontein,-34.0033,24.7314,68.88,90,100,4.23,ZA,1666544488
Kiama,-34.6833,150.8667,62.46,95,100,3.0,AU,1666544489
‘Āhuimanu,21.4447,-157.8378,74.79,88,28,3.0,US,1666544489
Rawson,-43.3002,-65.1023,76.75,19,63,17.11,AR,1666544458
Bo Phloi,14.3236,99.5161,74.89,82,36,4.34,TH,1666544490
Nurota,40.5614,65.6886,52.68,76,96,6.71,UZ,1666544491
Abū Zabad,12.35,29.25,86.67,25,45,7.87,SD,1666544491
Warsaw,52.2298,21.0118,58.78,89,75,5.75,PL,1666544309
Volga,57.9516,38.3879,40.93,91,100,8.97,RU,1666544492
Baruun-Urt,46.6806,113.2792,34.9,47,10,7.99,MN,1666544473
Guasdualito,7.2424,-70.7324,86.0,74,76,4.61,VE,1666544493
Lima,-12.0432,-77.0282,59.25,77,100,8.05,PE,1666544282
Nara,34.6851,135.8049,61.5,49,54,7.9,JP,1666544473
Conceição do Araguaia,-8.2578,-49.2647,100.53,28,56,6.98,BR,1666544493
Terrace Bay,48.7834,-87.1,48.92,88,48,11.27,CA,1666544494
Ghanzi,-21.5667,21.7833,83.37,29,95,8.9,BW,1666544494
Kiryat Gat,31.61,34.7642,72.81,100,16,9.46,IL,1666544495
Alta Floresta,-9.8756,-56.0861,93.02,52,40,5.75,BR,1666544398
Vila,42.0304,-8.1588,52.68,93,99,7.72,PT,1666544495
Pekalongan,-6.8886,109.6753,78.73,85,100,6.58,ID,1666544496
Sept-Îles,50.2001,-66.3821,55.06,76,5,1.01,CA,1666544496
Glazunovka,52.4986,36.3275,45.46,98,100,8.05,RU,1666544497
Hamadan,34.7992,48.5146,60.3,29,22,7.25,IR,1666544497
Makakilo City,21.3469,-158.0858,73.62,83,100,3.44,US,1666544472
Itoman,26.1247,127.6694,77.02,69,75,26.46,JP,1666544498
Mujiayingzi,42.1167,118.7833,38.03,37,0,4.72,CN,1666544498
Lékoni,-1.5843,14.2591,77.0,82,100,2.55,GA,1666544499
Najrān,17.4924,44.1277,77.65,22,0,5.91,SA,1666544329
Carutapera,-1.195,-46.02,87.58,57,73,12.26,BR,1666544499
Ouallam,14.3188,2.0866,94.44,13,2,7.0,NE,1666544500
San Félix,-32.3333,-58.1333,70.38,41,0,6.49,UY,1666544500
Chivasso,45.1894,7.8872,66.7,81,75,5.75,IT,1666544501
San Jose,37.3394,-121.895,60.4,62,0,6.91,US,1666544403
Sretensk,52.2453,117.7093,28.53,75,85,3.09,RU,1666544501
Puerto Maldonado,-12.6,-69.1833,82.87,57,100,2.8,PE,1666544502
Khurba,50.4072,136.8819,32.31,69,37,2.82,RU,1666544502
Forsytheganj,52.6333,29.7333,50.47,91,98,10.09,BY,1666544503
Buraidah,26.326,43.975,82.85,12,0,7.09,SA,1666544331
Zhigansk,66.7697,123.3711,21.47,92,100,25.14,RU,1666544503
Aswān,24.0934,32.907,78.75,28,0,11.88,EG,1666544504
Pandan,14.0453,124.1694,80.22,84,62,6.58,PH,1666544504
Goba,7.0167,39.9833,49.37,93,87,3.18,ET,1666544505
Ginda,30.6945,78.4932,52.05,56,0,6.67,IN,1666544505
Bagdarin,54.4333,113.6,25.57,76,94,1.21,RU,1666544505
San Lorenzo,-25.3333,-57.5333,85.14,37,0,6.89,PY,1666544506
Beruwala,6.4788,79.9828,77.56,88,100,5.37,LK,1666544506
Indaial,-26.8978,-49.2317,86.61,48,14,1.5,BR,1666544507
Byron Bay,-28.65,153.6167,65.95,93,100,16.6,AU,1666544418
Bathsheba,13.2167,-59.5167,84.65,72,56,11.97,BB,1666544507
Coquimbo,-29.9533,-71.3436,60.57,72,31,9.89,CL,1666544508
Sogod,10.3847,124.9814,77.18,93,100,1.83,PH,1666544509
Okhotsk,59.3833,143.3,19.27,55,96,12.86,RU,1666544510
Sotuta,20.6,-89.0167,86.18,31,0,4.0,MX,1666544511
Krasnoturansk,54.3186,91.5639,38.75,54,64,21.41,RU,1666544511
Caucaia,-3.7361,-38.6531,87.31,74,67,12.5,BR,1666544512
Chizhou,30.6578,117.4831,59.0,60,14,8.57,CN,1666544512
Mpika,-11.8343,31.4529,73.6,36,90,6.91,ZM,1666544226
Vao,-22.6667,167.4833,72.68,78,100,24.79,NC,1666544513
Diego de Almagro,-26.3667,-70.05,83.86,10,0,11.3,CL,1666544513
Isangel,-19.55,169.2667,73.53,79,100,17.67,VU,1666544514
Yurimaguas,-5.9,-76.0833,80.91,80,96,3.8,PE,1666544514
Hervey Bay,-25.2986,152.8535,68.02,92,28,3.0,AU,1666544515
Hirara,24.8,125.2833,77.29,76,96,25.01,JP,1666544361
Bambanglipuro,-7.95,110.2833,77.41,87,97,6.04,ID,1666544515
Kencong,-8.2833,113.3667,77.11,90,97,2.06,ID,1666544516
Necochea,-38.5473,-58.7368,67.78,33,48,11.95,AR,1666544516
Nokaneng,-19.6667,22.2667,83.41,28,94,6.06,BW,1666544517
Preobrazheniye,42.9019,133.9064,39.6,64,90,7.65,RU,1666544518
Katangli,51.7102,143.2326,27.34,75,84,7.27,RU,1666544518
Kholm,59.2667,32.85,42.57,87,100,7.56,RU,1666544518
Altamirano,16.8833,-92.15,71.58,51,39,3.87,MX,1666544519
Songjianghe,42.1859,127.479,28.26,86,81,1.21,CN,1666544519
Yaan,7.3833,8.5667,80.98,73,99,1.99,NG,1666544520
San Quintín,30.4833,-115.95,66.69,76,96,12.64,MX,1666544520
Chiang Khong,20.2613,100.4046,70.9,93,13,0.45,TH,1666544520
Myszków,50.5752,19.3246,55.98,96,93,1.99,PL,1666544413
Tautira,-17.7333,-149.15,76.8,78,62,5.99,PF,1666544472
São Filipe,14.8961,-24.4956,80.38,68,1,14.23,CV,1666544522
Anapskaya,44.89,37.38,61.03,77,40,17.9,RU,1666544522
Nouakchott,18.0858,-15.9785,82.33,66,0,13.94,MR,1666544414
Simbahan,6.3032,120.5836,83.32,75,100,7.58,PH,1666544523
Altamont,42.2068,-121.7372,39.78,81,75,3.44,US,1666544524
Correntina,-13.3433,-44.6367,85.41,45,92,5.82,BR,1666544524
São José da Coroa Grande,-8.8978,-35.1478,81.64,70,96,11.41,BR,1666544525
Tapiramutá,-11.8472,-40.7914,84.31,41,86,7.9,BR,1666544525
Kaniama,-7.5667,24.1833,77.29,51,89,1.72,CD,1666544526
Geneva,41.8875,-88.3054,74.14,60,0,23.02,US,1666544526
Kommunisticheskiy,61.6789,64.4819,32.54,64,100,15.28,RU,1666544527
La Santisima Trinidad,-14.8333,-64.9,87.67,55,93,6.35,BO,1666544527
Prince Rupert,54.3161,-130.3201,41.9,82,100,16.08,CA,1666544528
Mandalay,21.9747,96.0836,80.94,69,97,4.23,MM,1666544412
Kazygurt,41.7589,69.3864,48.92,82,100,6.08,KZ,1666544528
Salinópolis,-0.6136,-47.3561,85.71,68,80,14.88,BR,1666544529
Nyangao,-10.3333,39.2833,71.83,83,3,8.77,TZ,1666544529
Zapolyarnyy,69.4154,30.8136,36.68,98,100,23.13,RU,1666544530
Kralendijk,12.15,-68.2667,83.73,74,34,15.32,BQ,1666544531
Kahului,20.8947,-156.47,78.84,83,5,15.99,US,1666544531
Kapellen,51.3146,4.4383,67.01,79,100,5.75,BE,1666544532
Taoudenni,22.6783,-3.9836,95.2,9,26,8.77,ML,1666544532
Okha,53.5739,142.9478,27.93,65,62,7.27,RU,1666544533
Matveyevka,52.15,56.1833,32.65,55,23,6.8,RU,1666544533
Voi,-3.3945,38.563,75.69,70,100,11.01,KE,1666544534
Hazorasp,41.3194,61.0742,49.84,47,99,10.47,UZ,1666544534
Biak,-0.9131,122.8766,77.18,78,99,2.1,ID,1666544534
Avera,33.194,-82.5271,74.55,45,7,6.02,US,1666544535
Bismarck,46.8083,-100.7837,52.86,65,0,16.11,US,1666544476
Shimoda,34.6667,138.95,63.1,80,60,8.9,JP,1666544536
Salamiyah,35.0113,37.0532,70.84,52,16,9.17,SY,1666544267
North Platte,41.1239,-100.7654,78.39,23,8,23.0,US,1666544449
Amuntai,-2.4177,115.2494,74.66,98,66,1.92,ID,1666544537
Kurunegala,7.4863,80.3623,73.04,97,100,3.06,LK,1666544537
Ouadda,8.0777,22.4007,74.07,68,12,4.36,CF,1666544537
Nekā,36.6508,53.299,62.64,80,70,1.23,IR,1666544538
Padang,-0.9492,100.3543,75.25,95,100,3.0,ID,1666544304
Tutóia,-2.7619,-42.2744,85.08,67,90,17.34,BR,1666544539
Kenai,60.5544,-151.2583,36.14,71,100,3.74,US,1666544539
Teahupoo,-17.8333,-149.2667,71.56,78,74,8.03,PF,1666544540
Smolenka,52.1352,113.4974,26.67,74,53,2.24,RU,1666544540
Chui,-33.6971,-53.4616,63.7,79,88,14.32,UY,1666544406
Pangnirtung,66.1451,-65.7125,24.78,91,88,0.65,CA,1666544541
Palimé,6.9,0.6333,79.74,76,77,1.77,TG,1666544541
Nichinan,31.6,131.3667,66.52,76,78,4.16,JP,1666544542
Swabi,34.1199,72.4699,68.65,35,0,5.77,PK,1666544542
Mbandaka,0.0487,18.2603,78.87,75,96,2.24,CD,1666544543
Amalāpuram,16.5833,82.0167,73.98,81,86,3.31,IN,1666544543
Nadym,65.5333,72.5167,29.61,69,99,15.37,RU,1666544544
Beloha,-25.1667,45.05,72.19,77,45,5.41,MG,1666544544
Kobyzhcha,50.8285,31.5044,49.68,85,100,9.51,UA,1666544545
Khorramshahr,30.4397,48.1664,87.35,32,1,5.41,IR,1666544546
Coyhaique,-45.5752,-72.0662,49.64,69,83,8.97,CL,1666544546
Nelson Bay,-32.7167,152.15,64.99,97,100,8.99,AU,1666544547
Pacific Grove,36.6177,-121.9166,60.42,74,0,4.0,US,1666544547
Benguela,-12.5763,13.4055,76.98,78,12,6.4,AO,1666544547
Eldorado,-23.7869,-54.2836,79.45,61,0,5.1,BR,1666544548
Gritsovskiy,54.1376,38.1604,42.3,98,100,7.54,RU,1666544548
Sindor,62.8629,51.8905,34.5,96,100,12.8,RU,1666544549
Zhanakorgan,43.9098,67.2495,46.18,52,0,11.05,KZ,1666544549
Cedar City,37.6775,-113.0619,31.39,93,100,5.75,US,1666544549
Kodinsk,58.6881,99.1844,44.71,68,66,17.05,RU,1666544550
French Harbor,16.35,-86.4333,78.08,98,14,6.71,HN,1666544550
Agüimes,27.9054,-15.4461,74.66,73,20,18.41,ES,1666544551
Soyo,-6.1349,12.3689,78.22,84,96,10.2,AO,1666544552
Zenzeli,45.9241,47.0474,48.69,71,23,8.52,RU,1666544553
Husavik,66.0449,-17.3389,33.71,76,97,10.78,IS,1666544554
Gainesville,29.6516,-82.3248,78.08,51,7,1.01,US,1666544332
Puerto Escondido,15.85,-97.0667,86.83,58,20,8.05,MX,1666544554
Tinogboc,12.0074,121.4122,83.14,78,79,16.75,PH,1666544555
Inhambane,-23.865,35.3833,75.18,78,40,5.75,MZ,1666544555
St. George's,12.0564,-61.7485,84.31,73,47,9.66,GD,1666544555
Los Andes,-32.8337,-70.5983,79.02,35,5,8.14,CL,1666544515
Paamiut,61.994,-49.6678,36.36,98,100,12.39,GL,1666544556
Barsovo,61.1667,73.1667,30.33,71,49,15.88,RU,1666544557
Novoanninskiy,50.5287,42.6747,48.49,81,89,9.6,RU,1666544557
Vanavara,60.34,102.2797,43.47,73,62,19.44,RU,1666544557
